[
  {"name":"Kapiltirth Market E-Waste Center","lat":16.6968,"lng":74.2224,"type":["ewaste"],"address":"Kapiltirth Market, near Mahalakshmi Temple, Kolhapur","note":"Municipal e-waste collection point listed for Kolhapur city.","url": "Kapiltirth_Market_E-Waste_Center.html"},
  {"name":"Sambhajinagar Filter House Collection Point","lat":16.6889,"lng":74.2338,"type":["ewaste","plastic"],"address":"Racecourse Naka, Sambhajinagar, Kolhapur","note":"Collection point suitable for e-waste and dry recyclable drop-off."},
  {"name":"Govind Pansare School Collection Office","lat":16.6838,"lng":74.2418,"type":["ewaste","paper"],"address":"Sane Guruji Vasant area, Kolhapur","note":"Ward-level collection point for e-waste and paper waste segregation."},
  {"name":"Tararani Vidyalaya Collection Point","lat":16.6992,"lng":74.2268,"type":["ewaste","paper"],"address":"Near Shahu Bank, Kolhapur","note":"Public collection office referenced in city e-waste network."},
  {"name":"Shahu Cloth Market Dry Waste Point","lat":16.7038,"lng":74.2430,"type":["paper","plastic"],"address":"Shahu Cloth Market, Kolhapur","note":"Useful dry-waste point for paper and plastic segregation."},
  {"name":"Padmaraje Vidyalaya Collection Point","lat":16.7089,"lng":74.2282,"type":["ewaste","glass"],"address":"Near Khol Khandoba Temple, Kolhapur","note":"Ward collection point that can be shown as a local recycling drop-off center."},
  {"name":"Panchganga Hospital Collection Point","lat":16.7146,"lng":74.2238,"type":["plastic","paper","glass"],"address":"Panchganga Hospital area, Kolhapur","note":"Mixed recyclable collection point for household dry waste."},
  {"name":"Shastrinagar Fire Station Center","lat":16.7212,"lng":74.2387,"type":["ewaste","metal"],"address":"Shastrinagar Ground, opposite Fire Station, Kolhapur","note":"Local e-waste collection location in the city network."},
  {"name":"Mohite Vidyalaya Shahupuri Center","lat":16.7005,"lng":74.2352,"type":["ewaste","paper"],"address":"Shahupuri, Kolhapur","note":"Public collection office for ward residents."},
  {"name":"Kawla Naka Fire Station E-Waste Point","lat":16.7058,"lng":74.2438,"type":["ewaste"],"address":"Kawla Naka, Kolhapur","note":"Public drop-off location in Kolhapur city."},
  {"name":"Kasaba Bawada Pavilion Hall Center","lat":16.7349,"lng":74.2433,"type":["ewaste","metal"],"address":"Kasaba Bawada, Kolhapur","note":"Ward collection point connected with Kasaba Bawada processing facility."},
  {"name":"Mahadik Mal Family Welfare Center","lat":16.7248,"lng":74.2664,"type":["ewaste","plastic"],"address":"Mahadik Mal, Kolhapur","note":"Public collection point for e-waste and hazardous dry waste."},
  {"name":"Kasaba Bawada Processing Facility","lat":16.7365,"lng":74.2477,"type":["ewaste"],"address":"Kasaba Bawada processing zone, Kolhapur","note":"Processing-related reference point for collected e-waste."},
  {"name":"ServCare Kolhapur Pickup Coverage Point","lat":16.7050,"lng":74.2433,"type":["ewaste","plastic"],"address":"Kolhapur service coverage","note":"Authorized collection coverage in Kolhapur for e-waste and plastic pickup requests."},
  {"name":"Shiroli MIDC Scrap & Metal Cluster","lat":16.7433,"lng":74.3182,"type":["metal","plastic"],"address":"Shiroli MIDC, Kolhapur district","note":"Industrial area with concentrated scrap and material recovery activity."},
  {"name":"Gokul Shirgaon Industrial Scrap Hub","lat":16.6549,"lng":74.2902,"type":["metal","plastic"],"address":"Gokul Shirgaon MIDC, Kolhapur district","note":"Industrial recovery point for metal and plastic scrap movement."},
  {"name":"Ujalaiwadi Dry Waste Point","lat":16.6777,"lng":74.2978,"type":["plastic","paper"],"address":"Ujalaiwadi, Kolhapur district","note":"Representative suburban dry-waste sorting point."},
  {"name":"Ichalkaranji Material Recovery Point","lat":16.6918,"lng":74.4605,"type":["plastic","paper","metal"],"address":"Ichalkaranji, Kolhapur district","note":"Representative material recovery point for dry waste and scrap sorting."},
  {"name":"Jaysingpur Scrap Recovery Point","lat":16.7762,"lng":74.5548,"type":["metal","plastic"],"address":"Jaysingpur, Kolhapur district","note":"Scrap and recycling activity point serving the eastern belt."},
  {"name":"Hupari Metal Recycling Point","lat":16.7630,"lng":74.4675,"type":["metal"],"address":"Hupari, Kolhapur district","note":"Metal-focused recovery point in a well-known metal trade area."},
  {"name":"Gadhinglaj Dry Waste Center","lat":16.2229,"lng":74.3501,"type":["plastic","paper","glass"],"address":"Gadhinglaj, Kolhapur district","note":"Southern district collection point for mixed dry recyclables."},
  {"name":"Kagal Municipal Dry Waste Point","lat":16.5770,"lng":74.3154,"type":["plastic","paper","glass"],"address":"Kagal, Kolhapur district","note":"Municipal-side dry-waste point for local segregation and transfer."},
  {"name":"Malkapur Scrap Collection Point","lat":16.8622,"lng":74.3125,"type":["metal","paper"],"address":"Malkapur, Shahuwadi taluka, Kolhapur district","note":"Recovery point for paper and metal scrap from nearby settlements."},
  {"name":"Ajara Recycling Collection Point","lat":16.1170,"lng":74.2107,"type":["plastic","glass"],"address":"Ajara, Kolhapur district","note":"Representative western belt collection point for dry recyclable waste."}
]
